Warehouse_ID,City,State,Latitude,Longitude
WH_EAST_01,New York,NY,40.7128,-74.006
WH_EAST_02,Atlanta,GA,33.749,-84.388
WH_WEST_01,Los Angeles,CA,34.0522,-118.2437
WH_WEST_02,Seattle,WA,47.6062,-122.3321
WH_CENTRAL_01,Chicago,IL,41.8781,-87.6298
WH_CENTRAL_02,Dallas,TX,32.7767,-96.797
WH_SOUTH_01,Miami,FL,25.7617,-80.1918
